{
    "lunes": [
        {
            "name": "Altagracia",
            "direccion": "Av. Ind. Textil entre Agave y Torre Vieja",
            "lat": 20.746373,
            "lng": -103.3927528
        },
        {
            "name": "Balcones de la Cantera",
            "direccion": "Cantera Blanca entre Brillante y Plata.",
            "lat": 20.7449758,
            "lng": -103.3512707
        },
        {
            "name": "Balcones del Sol (ó Balcones del Colli)",
            "direccion": "Lima, entre Mezquite y Galeana",
            "lat": 20.6504593,
            "lng": -103.4576796
        },
        {
            "name": "Cajetes, Los",
            "direccion": "Av. Las Torres entre San Francisco y San Jose",
            "lat": 20.5881716,
            "lng": -103.4237244
        },
        {
            "name": "Ciudad Granja",
            "direccion": "Calzada de los Paraísos entre C. De las Palmas y C. Laureles",
            "lat": 20.6826443,
            "lng": -103.452701
        },
        {
            "name": "Girasoles",
            "direccion": "Santa Lucrecia de Santa Mercedes a Av. Acueducto",
            "lat": 20.72902,
            "lng": -103.41376
        },
        {
            "name": "Jardines de la Patria",
            "direccion": "Inglaterra entre Giovanni Pappini y Shakespeare",
            "lat": 20.6830773,
            "lng": -103.4243374
        },
        {
            "name": "Mante, El",
            "direccion": "Calle Michoacan y Av. Jalisco",
            "lat": 20.6073885,
            "lng": -103.4247467
        },
        {
            "name": "Mesa de los Ocotes",
            "direccion": "Jitomate entre Tomate y Frijol",
            "lat": 20.7642193,
            "lng": -103.3452422
        },
        {
            "name": "Palmira",
            "direccion": " Av. Palmira",
            "lat": 20.5942938,
            "lng": -103.4254666
        },
        {
            "name": "Paseos del Sol",
            "direccion": "Lateral Periferico y Peñorada",
            "lat": 20.6245959,
            "lng": -103.4328744
        },
        {
            "name": "Prados de Santa Lucia",
            "direccion": "Chapultepec, ente Vicente Suarez y Juan Escutia",
            "lat": 20.8011938,
            "lng": -103.49945
        },
        {
            "name": "Primavera, La",
            "direccion": "Leona Vicario, entre Av. La Paz e Ignacio Allende",
            "lat": 20.6723528,
            "lng": -103.3671815
        },
        {
            "name": "San Isidro Ejidal",
            "direccion": "Francisco Sarabia entre Libertad y Lucio Blanco",
            "lat": 20.7305001,
            "lng": -103.3975442
        },
        {
            "name": "Santa Margarita 2da Sección",
            "direccion": "Santa Lucrecia entre Santa Mercedes y Santa Monica",
            "lat": 20.7371528,
            "lng": -103.4199062
        },
        {
            "name": "Santa Mónica de los Chorritos",
            "direccion": "Chapultepec entre Hidalgo y 16 de septiembre.",
            "lat": 20.7243387,
            "lng": -103.3999978
        },
        {
            "name": "Venta del Astillero",
            "direccion": "E. Zapata entre M. García y J. Gil Preciado.",
            "lat": 20.7285439,
            "lng": -103.5448672
        }
    ],
    "martes": [
        {
            "name": "Arenales Tapatíos",
            "direccion": "Mica entre Mercurio y Arroyo",
            "lat": 20.6363544,
            "lng": -103.4557826
        },
        {
            "name": "Benito Juárez",
            "direccion": "Javier Rojo Gomez entre Carretera a Saltillo y Zapotlan",
            "lat": 20.7345047,
            "lng": -103.338984
        },
        {
            "name": "Campanario, El",
            "direccion": "San Isidro entre San Jose y Javier ",
            "lat": 20.634157,
            "lng": -103.4130668
        },
        {
            "name": "Colli CTM",
            "direccion": "Fuera de la Explanada del Centro Social, por Felipe Carrillo Puerto y Andador sin Nombre",
            "lat": 20.6474291,
            "lng": -103.4279727
        },
        {
            "name": "Colli Poblado (ó Colli Ejidal)",
            "direccion": "Volcán Fujiyama",
            "lat": 20.64652,
            "lng": -103.43879
        },
        {
            "name": "Colli Urbano",
            "direccion": "Volcan Fujiyama entre Iturbide y Vol. Ajusco",
            "lat": 20.6445146,
            "lng": -103.4326475
        },
        {
            "name": "Hogares",
            "direccion": "Lázaro Cárdenas y Zapotlán",
            "lat": 20.7327407,
            "lng": -103.339306
        },
        {
            "name": "Juan Manuel Vallarta",
            "direccion": "Av. Inglaterra entre Libra y Escorpion",
            "lat": 20.6791559,
            "lng": -103.4094351
        },
        {
            "name": "Mesa Colorada",
            "direccion": "Vista hermosa entre Vista Campestre y Buena Vista",
            "lat": 20.7600208,
            "lng": -103.335039
        },
        {
            "name": "Residencial Cordilleras",
            "direccion": "H. Berlioz entre Av. Patria y George Haendel",
            "lat": 20.67071,
            "lng": -103.42356
        },
        {
            "name": "Santa Margarita 1ra. Sección",
            "direccion": "Santa Ana  entre Torres y Santa Cecilia.",
            "lat": 20.740207,
            "lng": -103.4185578
        },
        {
            "name": "Santa Margarita 2da Sección",
            "direccion": "Santa Ana entre Santa Mrgarita y Santa Alicia",
            "lat": 20.7260463,
            "lng": -103.4129573
        },
        {
            "name": "Santa Maria del Pueblito",
            "direccion": "Guadalupe Victoria",
            "lat": 20.6799598,
            "lng": -103.4367275
        },
        {
            "name": "Tabachines",
            "direccion": "Paseo de las Galateas entre Paseo de los Bambues y Paseo de los Granados",
            "lat": 20.74053,
            "lng": -103.37002
        },
        {
            "name": "Tepeyac",
            "direccion": "Morelos entre Aurelio Ortega y Laureles",
            "lat": 18.6813049,
            "lng": -99.1013498
        },
        {
            "name": "Unidad Gustavo Díaz Ordaz",
            "direccion": "Av. Las Fuentes entre Tuxtla y S. Mazamitla.",
            "lat": 20.61962,
            "lng": -103.4187039
        },
        {
            "name": "Víctor Hugo",
            "direccion": "Calle Victoriano Núñez",
            "lat": 20.725842,
            "lng": -103.3426362
        },
        {
            "name": "Vigusa (La Vidriera)",
            "direccion": "Av. Inglaterrra entre Av. México y Sagitario",
            "lat": 20.6795703,
            "lng": -103.4127671
        },
        {
            "name": "Vista Hermosa",
            "direccion": "Vista Hermosa entre Vista Campestre y Buena Vista",
            "lat": 20.7600208,
            "lng": -103.335039
        }
    ],
    "miercoles": [
        {
            "name": "Agrícola, La",
            "direccion": "Gladiola entre Obelisco y Jazmín",
            "lat": 20.6167298,
            "lng": -103.4326897
        },
        {
            "name": "Águilas, Las",
            "direccion": "Montemorelos entre Proongacion Navio y Cruz del sur",
            "lat": 20.63181,
            "lng": -103.40841
        },
        {
            "name": "Arcos de Zapopan",
            "direccion": "A. Valentino y A. Constantino",
            "lat": 20.7411499,
            "lng": -103.409278
        },
        {
            "name": "Arroyo Hondo 1ra. Sección",
            "direccion": "Prolongación Federalismo",
            "lat": 20.7431761,
            "lng": -103.3469455
        },
        {
            "name": "Floresta del Colli, La",
            "direccion": "Calle Bugambilias y Amapola",
            "lat": 20.646816,
            "lng": -103.4652087
        },
        {
            "name": "Garabato, El",
            "direccion": "Prolongación José López Portillo y Tepeyac",
            "lat": 20.623876,
            "lng": -103.4420712
        },
        {
            "name": "Indígena de Mezquitán",
            "direccion": "Niños Heroes y Josefa Ortiz de Dominguez",
            "lat": 20.73753,
            "lng": -103.3307761
        },
        {
            "name": "Ixcatán Poblado",
            "direccion": "Por Vicente Guerrero, en la plaza",
            "lat": 20.6390119,
            "lng": -103.4575578
        },
        {
            "name": "Jardines del Ixtépete",
            "direccion": "Prolongación Tepeyac entre Padros del Ixtepete y Cerrada Prolongación Tepeyac",
            "lat": 20.6243406,
            "lng": -103.4417135
        },
        {
            "name": "Lomas Universidad",
            "direccion": "Av. Novelistas entre Mabuse y Gabrielle D' Anunzio",
            "lat": 20.6819667,
            "lng": -103.431842
        },
        {
            "name": "Mesa de los Ocotes",
            "direccion": "Paseo de los Guayabos y Paseo de los Ocotes",
            "lat": 20.7650881,
            "lng": -103.3526544
        },
        {
            "name": "Miramar",
            "direccion": "Puerto Batabampo entre Puerto Guaymas y Puerto Tampico",
            "lat": 20.64197,
            "lng": -103.46091
        },
        {
            "name": "Parques del Auditorio",
            "direccion": "Prol. Federalismo Nte. entre Tratado de Tlalteloco y Gtez. Gallo",
            "lat": 20.735108,
            "lng": -103.3509973
        },
        {
            "name": "Residencial Moctezuma",
            "direccion": "Av. Copernico y Av. Moctezuma",
            "lat": 20.6505914,
            "lng": -103.4326047
        },
        {
            "name": "San Juan de Ocotán",
            "direccion": "Juárez entre Independencia y Venustiano Carranza",
            "lat": 20.7105283,
            "lng": -103.4562825
        },
        {
            "name": "Tesistán",
            "direccion": "Libertad entre San Francisco y Melchor Ocampo",
            "lat": 20.7996398,
            "lng": -103.5015455
        },
        {
            "name": "Unidad Auditorio",
            "direccion": "Federalismo y Club Atlas",
            "lat": 20.7341454,
            "lng": -103.3511316
        },
        {
            "name": "Redidencial Plaza Guadalupe",
            "direccion": "Av. Moztezuma",
            "lat": 20.6501658,
            "lng": -103.4224595
        }
    ],
    "jueves": [
        {
            "name": "Bóvedas, Las,",
            "direccion": "Azaleas entre Santa Margarita y San Marcos",
            "lat": 20.73436,
            "lng": -103.42355
        },
        {
            "name": "Ciudad Granja,",
            "direccion": "Cincurvalación Pte. entre C. Del Fresno y Paraísos",
            "lat": 20.678585,
            "lng": -103.4538075
        },
        {
            "name": "Colinas de la Primavera,",
            "direccion": "Jacarandas",
            "lat": 20.6414227,
            "lng": -103.473376
        },
        {
            "name": "Constitución,",
            "direccion": "Constituyentes entre Manuel M. Dieguez y Gral. Aguirre",
            "lat": 20.7311914,
            "lng": -103.3697954
        },
        {
            "name": "Coronilla, La,",
            "direccion": "Ramon Lopez Velarde",
            "lat": 20.7594539,
            "lng": -103.3264985
        },
        {
            "name": "Emiliano Zapata,",
            "direccion": "Curtidores entre Carpinteros y Campesinos",
            "lat": 20.7520095,
            "lng": -103.3627361
        },
        {
            "name": "Francisco Sarabia,",
            "direccion": "Francisco Villa entre Hernan Cortes, Allende y Carretera a Santa Ana",
            "lat": 20.612993,
            "lng": -103.4310269
        },
        {
            "name": "Gusa,",
            "direccion": "Aldama hasta la glorieta por calle la Gusa",
            "lat": 20.7233191,
            "lng": -103.3645292
        },
        {
            "name": "Hacienda la Mora,",
            "direccion": "Azaleas entre Santa Margarita y San Marcos",
            "lat": 20.7303387,
            "lng": -103.4249696
        },
        {
            "name": "Huerta, La,",
            "direccion": "Constituyentes, entre Alfonso Gravioto y Pablo Quiroga.",
            "lat": 20.7270901,
            "lng": -103.3663145
        },
        {
            "name": "Lomas de la Primavera,",
            "direccion": "Flor de Castilla",
            "lat": 20.6397029,
            "lng": -103.4738028
        },
        {
            "name": "Mesa Colorada Poniente,",
            "direccion": "A. Indigena y Calle Delli",
            "lat": 20.7714434,
            "lng": -103.3472011
        },
        {
            "name": "Miguel Hidalgo,",
            "direccion": "Piedras Negras",
            "lat": 20.7469826,
            "lng": -103.3421778
        },
        {
            "name": "Nextipac,",
            "direccion": "Juárez",
            "lat": 20.7665925,
            "lng": -103.5245083
        },
        {
            "name": "Nuevo Vergel,",
            "direccion": "Curtidores entre Carpinteros y Campesinos",
            "lat": 20.7520095,
            "lng": -103.3627361
        },
        {
            "name": "Paraísos del Colli,",
            "direccion": "Nogal entre Prolongacion Tepeyac y Vol. Quinceo",
            "lat": 19.7360115,
            "lng": -101.2247524
        },
        {
            "name": "Prados Vallarta,",
            "direccion": "Santa Catalina de Siena entre Santa Rosa de Lima y L. Cardenas",
            "lat": 20.6702541,
            "lng": -103.4155571
        },
        {
            "name": "Santa Paula,",
            "direccion": "Constituyentes hasta la glorieta por la calle Gusa.",
            "lat": 20.7233191,
            "lng": -103.3645292
        },
        {
            "name": "Zapote, El,",
            "direccion": "Tajin entre Xochitl y Sayil",
            "lat": 20.6539154,
            "lng": -103.4155498
        }
    ],
    "viernes": [
        {
            "name": "Arcos de Zapopan,",
            "direccion": "Arco Pertinax entre Arco del Triunfo y Arco Druso",
            "lat": 20.7424892,
            "lng": -103.4062692
        },
        {
            "name": "Atemajac del Valle,",
            "direccion": "Granaditos, (Experiencia), entre Cuitlahuac y E. Zapata",
            "lat": 20.7146806,
            "lng": -103.3543585
        },
        {
            "name": "Briseño, El,",
            "direccion": "Santa Ana entre Colonos Unidos y Lopez Portillo",
            "lat": 20.634157,
            "lng": -103.4130668
        },
        {
            "name": "Colinas de los Robles,",
            "direccion": "Ahuehuetes",
            "lat": 20.7647334,
            "lng": -103.4217598
        },
        {
            "name": "Constituyentes,",
            "direccion": "Paseo de las Caobas",
            "lat": 20.7429391,
            "lng": -103.3605692
        },
        {
            "name": "Copala,",
            "direccion": "Calle López Mateos",
            "lat": 20.8350927,
            "lng": -103.4136708
        },
        {
            "name": "Húmedo de Nextipac, El,",
            "direccion": "Río Amazonas",
            "lat": 20.7941842,
            "lng": -103.498781
        },
        {
            "name": "Jardines del Auditorio,",
            "direccion": "Mariano Barcenas entre Luis Quintero y M Hndez",
            "lat": 20.7334704,
            "lng": -103.3460969
        },
        {
            "name": "Jardines Vallarta,",
            "direccion": "Av. Inglaterra entre Gabriel García Marquez y Juan Palomar y Arias",
            "lat": 20.6866229,
            "lng": -103.4299536
        },
        {
            "name": "Lomas de Zapopan,",
            "direccion": "Arco Pertinax entre A. Triunfo y A. Drusco",
            "lat": 20.74302,
            "lng": -103.40613
        },
        {
            "name": "Mariano Otero,",
            "direccion": "Lateral Mariano Otero entre Cuarzo y Sienita",
            "lat": 20.630915,
            "lng": -103.450684
        },
        {
            "name": "Residencial Plaza Guadalupe,",
            "direccion": "Av. Moctezuma",
            "lat": 20.6501658,
            "lng": -103.4224595
        },
        {
            "name": "Rinconada del Auditorio,",
            "direccion": "Mariano Barcenas",
            "lat": 20.7138921,
            "lng": -103.3994824
        },
        {
            "name": "San Isidro Ejidal,",
            "direccion": "Cuitlahuac entre Colon y Av. del Corral",
            "lat": 20.7306413,
            "lng": -103.3954677
        },
        {
            "name": "Tabachines,",
            "direccion": "Paseo de las Caobas entre Paseo de los Huejotes , Frambuesos y Tabachines",
            "lat": 20.74369,
            "lng": -103.35973
        },
        {
            "name": "Vigía, El,",
            "direccion": "Cuitlahuac entre Colon y Av. del Corral",
            "lat": 20.7300347,
            "lng": -103.393164
        },
        {
            "name": "Villa, La,",
            "direccion": "Cuitlahuac entre Colon y Av. del Corral",
            "lat": 20.72504,
            "lng": -103.3964739
        }
    ],
    "sabado": [
        {
            "name": "Agrícola, La",
            "direccion": "Hortencia entre Camino a Santa Ana y Tulipán",
            "lat": 20.6150779,
            "lng": -103.4399639
        },
        {
            "name": "Alameda de Tesistán",
            "direccion": "Jardines de los Jazmines",
            "lat": 20.7481739,
            "lng": -103.3711763
        },
        {
            "name": "Arenales Tapatíos",
            "direccion": "Cobre entre Mercurio y Platino",
            "lat": 20.63904,
            "lng": -103.46711
        },
        {
            "name": "Carlos Rivera Aceves",
            "direccion": "Cobre, entre Centenario y Mercurio",
            "lat": 20.6413522,
            "lng": -103.4667118
        },
        {
            "name": "Colli CTM",
            "direccion": "Av. El Colli, de Cordilleras a Av. Copèrnico",
            "lat": 20.6462093,
            "lng": -103.4280285
        },
        {
            "name": "Colli Urbano ",
            "direccion": "El Colli entre Copernico y Vol. Cotopaxi",
            "lat": 20.653053,
            "lng": -103.4324653
        },
        {
            "name": "Experiencia, la",
            "direccion": "Ma. Teresa Campirano entre Imperio y A. Serdan y Por A. Serdan entre Jesús Martínez Y Lazaro Cárdenas",
            "lat": 20.7175717,
            "lng": -103.3516464
        },
        {
            "name": "Hogares",
            "direccion": "Arandas y Zapotlán",
            "lat": 20.7332452,
            "lng": -103.3392238
        },
        {
            "name": "Jardines de Nuevo México",
            "direccion": "3a Oriente entre Tesistán y 8a Sur",
            "lat": 20.7672196,
            "lng": -103.4379033
        },
        {
            "name": "Lomas del Refugio",
            "direccion": "Chapala, de Teocaltiche a Lagos de Moreno",
            "lat": 20.7435338,
            "lng": -103.3373084
        },
        {
            "name": "Martinica, La",
            "direccion": "Hidalgo entre Francisco I.Madero y Morelos",
            "lat": 20.6182984,
            "lng": -103.4577384
        },
        {
            "name": "Nuevo México",
            "direccion": "Tercera Oriente, entre Carretera a Tesistán y Octava Sur",
            "lat": 20.7629015,
            "lng": -103.4401648
        },
        {
            "name": "Tuzanía , La",
            "direccion": "Av. Tuzania entre Palmeras y Ajonjoli",
            "lat": 20.7362035,
            "lng": -103.4165904
        },
        {
            "name": "Villas de Nuevo México",
            "direccion": "Entronque de 1 de mayo y Albuquerque",
            "lat": 20.7639925,
            "lng": -103.4294232
        },
        {
            "name": "Cuchilla, La (ó Valle de la Providencia)",
            "direccion": "Base Aerea",
            "lat": 20.6719563,
            "lng": -103.416501
        }
    ],
    "domingo": [
        {
            "name": "Agua Blanca Poblado",
            "direccion": "Guadalupe Gallo entre H. y Cairo y Privada 5 de Mayo",
            "lat": 20.6032335,
            "lng": -103.4324322
        },
        {
            "name": "Agua Blanca Sur",
            "direccion": "Av. Guadalupe Gallo",
            "lat": 20.6016941,
            "lng": -103.4322944
        },
        {
            "name": "Batán, El",
            "direccion": "Francisco I. Madero entre Occidental y Experiencia",
            "lat": 20.6291141,
            "lng": -103.4552723
        },
        {
            "name": "Briseño, El",
            "direccion": "Av. Las Torres entre Colonos Unidos y Santo Tomas",
            "lat": 20.6253278,
            "lng": -103.4368174
        },
        {
            "name": "Centinela, El (ó Colinas del Centinela)",
            "direccion": "Calle Las Misiones",
            "lat": 20.7681289,
            "lng": -103.3912224
        },
        {
            "name": "Constitución",
            "direccion": "Constituyentes entre Manuel M. Dieguez y Gral. Aguirre",
            "lat": 20.7311914,
            "lng": -103.3697954
        },
        {
            "name": "Constitución",
            "direccion": "Obreros de Cananea entre Gral. J. Aguirre y G. Marquez",
            "lat": 20.7295754,
            "lng": -103.360703
        },
        {
            "name": "Emiliano Zapata",
            "direccion": "Venustiano Carranza entre A. Obregon y Tabachines",
            "lat": 20.7500389,
            "lng": -103.3629627
        },
        {
            "name": "Gusa",
            "direccion": "Aldama hasta la glorieta por calle la Gusa",
            "lat": 20.7233191,
            "lng": -103.3645292
        },
        {
            "name": "Huerta, La",
            "direccion": "Constituyentes, entre Alfonso Gravioto y Pablo Quiroga",
            "lat": 20.7270901,
            "lng": -103.3663145
        },
        {
            "name": "Jardines de San Ignacio",
            "direccion": "Glorieta Chapalita",
            "lat": 20.6663867,
            "lng": -103.4026843
        },
        {
            "name": "Jardines de Nuevo México",
            "direccion": "1a Poniente entre 4a Norte y 8a Sur",
            "lat": 20.7684787,
            "lng": -103.4483077
        },
        {
            "name": "Loma Bonita Ejidal",
            "direccion": "Av. Tabachines entre Río Tuxpan y Av. Patria",
            "lat": 20.6244351,
            "lng": -103.4031607
        },
        {
            "name": "Lomas de Tabachines ",
            "direccion": "Granados, entre Higuerillas y Duraznos",
            "lat": 20.7485576,
            "lng": -103.3558249
        },
        {
            "name": "Lomas del Batán",
            "direccion": "Francisco I Madero entre Occidental y Experiencia",
            "lat": 20.7197782,
            "lng": -103.3492713
        },
        {
            "name": "Mesa Colorada",
            "direccion": "Piña entre Toronja y Barranco",
            "lat": 20.7653573,
            "lng": -103.338546
        },
        {
            "name": "Miramar",
            "direccion": "Puerto Mazatlán entre Puerto Guaymas y Arenales",
            "lat": 20.6325695,
            "lng": -103.4665203
        },
        {
            "name": "Palmita, La",
            "direccion": "Desde Encarnacion Ortiz hasta Natividad Macias",
            "lat": 20.7305242,
            "lng": -103.3603174
        },
        {
            "name": "Paraísos del Colli",
            "direccion": "Jacarandas entre El Colli y Av. Patria",
            "lat": 20.6486903,
            "lng": -103.4536224
        },
        {
            "name": "Pedro Moreno",
            "direccion": "Obreros de Cananea entre Gral. J. Aguirre y G. Marquez",
            "lat": 20.7293651,
            "lng": -103.3582048
        },
        {
            "name": "Residencial Plaza Guadalupe",
            "direccion": "Av. Moctezuma",
            "lat": 20.6501658,
            "lng": -103.4224595
        },
        {
            "name": "San Esteban",
            "direccion": "Calle Juárez e Hidalgo",
            "lat": 20.798634,
            "lng": -103.3755097
        },
        {
            "name": "San José del Bajio",
            "direccion": "Plata entre Santa Margarita y L. Cardenas",
            "lat": 20.7336952,
            "lng": -103.4014953
        },
        {
            "name": "San Juan de Ocotán",
            "direccion": "Av. 16 de Septiembre entre Ocampo y 5 de Mayo",
            "lat": 20.7081427,
            "lng": -103.4553745
        },
        {
            "name": "Santa Ana Tepetitlán",
            "direccion": "Emiliano Zapata entre Santa Ana Tepetitlán y Zaragoza",
            "lat": 20.6230405,
            "lng": -103.4519052
        },
        {
            "name": "Santa Lucía",
            "direccion": "Morelos entre M.M. Dieguez y Corregidora",
            "lat": 20.803977,
            "lng": -103.4923979
        },
        {
            "name": "Santa Paula",
            "direccion": "Constituyentes hasta la glorieta por la calle Gusa.",
            "lat": 20.7233191,
            "lng": -103.3645292
        },
        {
            "name": "Villas de Guadalupe",
            "direccion": "San Raymundo entre San Pedro y San Julian",
            "lat": 20.7501586,
            "lng": -103.3442893
        },
        {
            "name": "Cuchilla, La (ó Valle de la Providencia)",
            "direccion": "Chori",
            "lat": 19.6838483,
            "lng": -103.4833326
        }
    ]
}