{
    "lunes": [
        {
            "name": "5 DE MAYO",
            "street1": "CUAHUATEMOC",
            "street2": "TURQUÍA",
            "street3": "PABLO VALDEZ",
            "street4": "ESTEBAN ALATORRE",
            "lat": 20.6764,
            "lng": -103.3442
        },
        {
            "name": "BALCONES DE OBLATOS",
            "street1": "BALCONES OBLATOS",
            "street2": "HACIENDA LA ESTANCIA",
            "street3": "HACIENDA IXCUINTLA",
            "street4": "HACIENDA LA VENTA",
            "lat": 20.6847816,
            "lng": -103.2913923
        },
        {
            "name": "BETHEL",
            "street1": "EL BETHEL",
            "street2": "BETZAYDA",
            "street3": "HACIENDA SAN RAMÓN",
            "street4": "JERIMOTH",
            "lat": 20.6912481,
            "lng": -103.2728412
        },
        {
            "name": "CHAMPOTON",
            "street1": "ATLAS",
            "street2": "RÍO CUALE",
            "street3": "CHAMPOTÓN",
            "street4": "ARTÍCULO 123",
            "lat": 20.6419338,
            "lng": -103.3214047
        },
        {
            "name": "ECHEVERRÍA",
            "street1": "ECHEVERRIA",
            "street2": "MARÍA C. BANCALARI",
            "street3": "PEDRO GARCÍA CONDE",
            "street4": "JOSÉ ARRESE",
            "lat": 20.6244746,
            "lng": -103.3622189
        },
        {
            "name": "EL RETIRO",
            "street1": "EL RETIRO",
            "street2": "TORRES QUINTERO",
            "street3": "RUBÍ",
            "street4": "BRILLANTE",
            "lat": 20.6906546,
            "lng": -103.3397341
        },
        {
            "name": "EL ZALATE",
            "street1": "EL ZALATE",
            "street2": "AGUSTÍN ESCUDERO",
            "street3": "SOR JUANA INÉS DE LA CRUZ",
            "street4": "SALVADOR CORDERO",
            "lat": 20.6810349,
            "lng": -103.2710721
        },
        {
            "name": "FELIPE ANGELES",
            "street1": "SAN ISIDRO",
            "street2": "GUELATAO",
            "street3": "FEDERACIÓN",
            "street4": "FRANCISCO DE AYZA",
            "lat": 20.67424,
            "lng": -103.30157
        },
        {
            "name": "HDA DE GUADALUPE",
            "street1": "OBLATOS",
            "street2": "HACIENDA LA QUEMADA",
            "street3": "HACIENDA LOS LAURELES",
            "street4": "RONDALLA",
            "lat": 20.6991844,
            "lng": -103.2990089
        },
        {
            "name": "HORNOS",
            "street1": "LA PAZ",
            "street2": "HORNOS",
            "street3": "REVOLUCIÓN",
            "street4": "PIRAMIDE",
            "lat": 20.6751707,
            "lng": -103.3473385
        },
        {
            "name": "HUENTITÁN EL ALTO",
            "street1": "HUENTITÁN EL ALTO",
            "street2": "JOAQUÍN ROMERO",
            "street3": "OTILIO GONZALEZ",
            "street4": "PRIV. ARCEDIANO",
            "lat": 20.7209163,
            "lng": -103.3020414
        },
        {
            "name": "HUENTITÁN EL BAJO",
            "street1": "HUENTITÁN EL BAJO",
            "street2": "CALZADA INDEPENDENCIA",
            "street3": "VOLCÁN TANCÍNTARO",
            "street4": "VOLCÁN POPOCA",
            "lat": 20.7153965,
            "lng": -103.3195682
        },
        {
            "name": "LA LUNA",
            "street1": "REVOLUCIONARIO MEZA",
            "street2": "PEDRO MORENO",
            "street3": "RAFAEL NAVARRO CORTINA",
            "street4": "MEZQUITERA",
            "lat": 20.6134192,
            "lng": -103.3741775
        },
        {
            "name": "LA PAZ",
            "street1": "LA PERLA",
            "street2": "PABLO GUTIÉRREZ",
            "street3": "JUAN DIAZ COVARRUBIAS",
            "street4": "GENERAL SALAZAR",
            "lat": 20.6803525,
            "lng": -103.3354772
        },
        {
            "name": "LOMAS DEL PARAÍSO",
            "street1": "LOMAS DEL PARAÍSO",
            "street2": "RAFAEL CÁRDENAS",
            "street3": "MARÍA LUISA MARTÍNEZ",
            "street4": "EMILIANO ZAPATA",
            "lat": 20.7241093,
            "lng": -103.3169171
        },
        {
            "name": "LUIS MANUEL ROJAS",
            "street1": "SAN ISIDRO",
            "street2": "ABRAHAM GONZÁLEZ",
            "street3": "PUERTO MELAQUE",
            "street4": "SANTA CLEMENCIA",
            "lat": 20.7098612,
            "lng": -103.3394125
        },
        {
            "name": "MIRAVALLE",
            "street1": "MIRAVALLE",
            "street2": "FRAY ANGÉLICO",
            "street3": "ARTES PLASTICAS",
            "street4": "AV. DE LA ARQUITECTURA",
            "lat": 20.60827,
            "lng": -103.34288
        },
        {
            "name": "PALMA SOLA",
            "street1": "18 DE MARZO",
            "street2": "AMERICO VESPUCIO",
            "street3": "FAJA DE ORO",
            "street4": "PAPANTLA",
            "lat": 20.6367294,
            "lng": -103.3741447
        },
        {
            "name": "PLATÓN",
            "street1": "INDEPENDENCIA",
            "street2": "MONTE CARMELO",
            "street3": "NORMALISTAS",
            "street4": "MONTE SAN ELÍAS",
            "lat": 20.7026138,
            "lng": -103.334204
        },
        {
            "name": "SAN FRANCISCO",
            "street1": "TETLAN",
            "street2": "MARÍA URIBE",
            "street3": "GIGANTES",
            "street4": "JOSÉ MARÍA VEREA",
            "lat": 20.6537114,
            "lng": -103.2834583
        },
        {
            "name": "SANTA ELENA",
            "street1": "SANTA ELENA ALCALDE",
            "street2": "BEJAR",
            "street3": "VALENCIA",
            "street4": "LINARES",
            "lat": 20.7109994,
            "lng": -103.3470541
        },
        {
            "name": "SANTA MARÍA",
            "street1": "SANTA MARIA",
            "street2": "ALVAREZ DEL CASTILLO",
            "street3": "SANTA BEATRIZ",
            "street4": "SAN ILDEFONSO",
            "lat": 20.6866567,
            "lng": -103.3129489
        },
        {
            "name": "ZARAGOZA",
            "street1": "OLIMPICA",
            "street2": "VIOLETA",
            "street3": "RÍO BALSAS",
            "street4": "CALZADA DEL EJÉRCITO",
            "lat": 20.63819,
            "lng": -103.3034522
        }
    ],
    "martes": [
        {
            "name": "5 DE MAYO",
            "street1": "JUAN BAUTISTA CEBALLOS",
            "street2": "PEDRO GARCÍA CONDE",
            "street3": "RAFAEL AGUIRRE",
            "street4": "",
            "lat": 20.6249194,
            "lng": -103.3528765
        },
        {
            "name": "ATLAS",
            "street1": "RÍO OCOTLÁN",
            "street2": "RÍO AMARILLO",
            "street3": "RÍO AUTLÁN",
            "street4": "",
            "lat": 20.6454954,
            "lng": -103.3297696
        },
        {
            "name": "BATALLÓN DE S. PATRICIO",
            "street1": "BATALLÓN DE SAN PATRICIO",
            "street2": "CALZADA INDEPENDENCIA",
            "street3": "MONTES URALES / SABIDURIA",
            "street4": "",
            "lat": 20.7164167,
            "lng": -103.3194369
        },
        {
            "name": "CERO",
            "street1": "ECHEVERRIA",
            "street2": "RAFAEL LOZADA",
            "street3": "ALBERTO CORREA",
            "street4": "ADOLFO CISNEROS",
            "lat": 20.617154,
            "lng": -103.3706498
        },
        {
            "name": "EL MIRADOR",
            "street1": "FRAY SERVANDO TERESA DE MIER",
            "street2": "CALLE 38",
            "street3": "CALLE 36",
            "street4": "",
            "lat": 20.6811599,
            "lng": -103.3188184
        },
        {
            "name": "FELIPE ANGELES",
            "street1": "SAN ISIDRO",
            "street2": "GUELATAO",
            "street3": "FEDERACIÓN",
            "street4": "FRANCISCO DE AYZA",
            "lat": 20.67424,
            "lng": -103.30157
        },
        {
            "name": "GÓNDOLA",
            "street1": "FERROCARRIL",
            "street2": "DE LA ESPUELA",
            "street3": "AV. DE LAS GÓNDOLAS",
            "street4": "CALLE 13",
            "lat": 20.6410358,
            "lng": -103.3444111
        },
        {
            "name": "HUENTITAN ZOOLOGICO",
            "street1": "HUNENTITAN EL ALTO",
            "street2": "VOLCÁN ACATENANGO",
            "street3": "VOLCÁN COLIMA",
            "street4": "VOLCÁN CAYAMBÉ",
            "lat": 20.7275186,
            "lng": -103.3119511
        },
        {
            "name": "HUITLACOCHE",
            "street1": "MORELOS",
            "street2": "HUITLACOCHE",
            "street3": "PELICANO",
            "street4": "GORRIÓN",
            "lat": 20.6470728,
            "lng": -103.3558594
        },
        {
            "name": "INSURGENTES",
            "street1": "INSURGENTES",
            "street2": "SOLEDAD CALLEJA",
            "street3": "AURELIA GUEVARA",
            "street4": "JOSÉ R. OSORIO",
            "lat": 20.6522467,
            "lng": -103.2778939
        },
        {
            "name": "LA GUADALUPANA",
            "street1": "LA GUADALUPANA",
            "street2": "FRANCISCO VERDÍN",
            "street3": "AV. CIRCUNVALACIÓN",
            "street4": "MANUEL MIMBELA",
            "lat": 20.7068455,
            "lng": -103.3526552
        },
        {
            "name": "LA LLAVE",
            "street1": "BALCONES DE OBLATOS",
            "street2": "HACIENDA LA CALERA",
            "street3": "PLUTARCO ELÍAS CALLES",
            "street4": "ANGEL ALBINO CORZO",
            "lat": 20.6950679,
            "lng": -103.2838171
        },
        {
            "name": "LAGUNITAS",
            "street1": "LAGUNITAS",
            "street2": "LAGUNITAS",
            "street3": "JOSEFA ORTIZ DE DOMÍNGUEZ",
            "street4": "GOMEZ DE MENDIOLA",
            "lat": 20.6713505,
            "lng": -103.2998259
        },
        {
            "name": "LÁZARO CÁRDENAS",
            "street1": "LAZARO CARDENAS",
            "street2": "JOSÉ MARÍA DE LA VEGA",
            "street3": "CARLOS REYES AVILÉS",
            "street4": "GERONIMO TREVIÑO",
            "lat": 20.6202053,
            "lng": -103.3798798
        },
        {
            "name": "MEZQUITÁN",
            "street1": "MEZQUITAN",
            "street2": "AV. FEDERALISMO",
            "street3": "JOSÉ MARÍA VIGIL",
            "street4": "AV. DE LOS MAESTROS",
            "lat": 20.7030481,
            "lng": -103.3548679
        },
        {
            "name": "POLANCO LICONSA",
            "street1": "POLANQUITO",
            "street2": "AV. 8 DE JULIO",
            "street3": "CAYETANO ESTEVA",
            "street4": "TEODOMIRO MANZANO",
            "lat": 20.6209882,
            "lng": -103.3723474
        },
        {
            "name": "PRESA OSORIO",
            "street1": "LAGOS DE ORIENTE",
            "street2": "CANAÁN",
            "street3": "NAZARET",
            "street4": "PRESA DEL LAUREL",
            "lat": 20.6700405,
            "lng": -103.2661675
        },
        {
            "name": "SAN ANTONIO",
            "street1": "MODERNA",
            "street2": "LÁZARO PÉREZ",
            "street3": "ENRIQUE DIAZ DE LEÓN",
            "street4": "PENITENCIARIA",
            "lat": 20.6751707,
            "lng": -103.3473385
        },
        {
            "name": "SAN ISIDRO",
            "street1": "SAN ISIDRO",
            "street2": "VERGEL 88",
            "street3": "SAN ESTEBAN",
            "street4": "SANTO TOMÁS",
            "lat": 20.6775795,
            "lng": -103.2968037
        },
        {
            "name": "SANTA EDUWIGES",
            "street1": "SANTA EDUWIGES",
            "street2": "BAHÍA",
            "street3": "FARO",
            "street4": "RIADA",
            "lat": 20.6409458,
            "lng": -103.3944858
        },
        {
            "name": "SANTA ELENA / TERUEL",
            "street1": "SANTA ELENA DE LA CRUZ",
            "street2": "TERUEL",
            "street3": "GILBERTO RUVALCABA",
            "street4": "LAMEGO",
            "lat": 20.6751707,
            "lng": -103.3473385
        },
        {
            "name": "SANTA FILOMENA",
            "street1": "SANTA FILOMENA",
            "street2": "FRESNO",
            "street3": "PERDÍZ",
            "street4": "CONDOR",
            "lat": 20.7050782,
            "lng": -103.3069743
        },
        {
            "name": "TALPITA",
            "street1": "TALPITA",
            "street2": "HACIENDA LOS BELENES",
            "street3": "CASTELLANOS Y TAPIA",
            "street4": "RIVAS GUILLÉN",
            "lat": 20.6939226,
            "lng": -103.3025909
        },
        {
            "name": "VILLA GUERRERO",
            "street1": "VILLAGUERRERO",
            "street2": "ISLAS HÉBRIDAS",
            "street3": "AV. PATRIA",
            "street4": "ISLA TRAPANI",
            "lat": 20.6296274,
            "lng": -103.3906345
        }
    ],
    "miercoles": [
        {
            "name": "AGUSTÍN DE LA ROSA",
            "street1": "DEL SUR",
            "street2": "COLOMBIA",
            "street3": "SAN SALVADOR",
            "street4": "HONDURAS",
            "lat": 20.6751707,
            "lng": -103.3473385
        },
        {
            "name": "ALCALDE",
            "street1": "CENTRO",
            "street2": "HERRERA Y CAIRO",
            "street3": "LICEO",
            "street4": "HUMBOLT",
            "lat": 20.6828033,
            "lng": -103.3477103
        },
        {
            "name": "BEATRIZ HERNÁNDEZ",
            "street1": "BEATRIZ HERNANDEZ",
            "street2": "M. GUTIÉRREZ",
            "street3": "CONCEPCIÓN ALVAREZ",
            "street4": "GAZA",
            "lat": 20.6820895,
            "lng": -103.2841292
        },
        {
            "name": "CAIRO",
            "street1": "LOS ROMOS",
            "street2": "EL CAIRO",
            "street3": "DIONISIO RODRÍGUEZ",
            "street4": "GÓMEZ DE MENDIOLA",
            "lat": 20.6699547,
            "lng": -103.3235793
        },
        {
            "name": "CALLE 50*",
            "street1": "MEDRANO",
            "street2": "CALLE 50",
            "street3": "MEDRANO",
            "street4": "GIGANTES",
            "lat": 20.6638499,
            "lng": -103.3202608
        },
        {
            "name": "CANAL 6",
            "street1": "BELISARIO DOMINGUEZ",
            "street2": "PUERTO PROGRESO",
            "street3": "MONTE LA LUNA",
            "street4": "PUERTO ALTATA",
            "lat": 20.7010241,
            "lng": -103.3147951
        },
        {
            "name": "ESMERIL",
            "street1": "ALAMO INDUSTRIAL",
            "street2": "ESMERIL",
            "street3": "REFINERÍA",
            "street4": "TALADRO",
            "lat": 20.6295238,
            "lng": -103.3304907
        },
        {
            "name": "FELIPE ANGELES",
            "street1": "SAN ISIDRO",
            "street2": "GUELATAO",
            "street3": "FEDERACIÓN",
            "street4": "FRANCISCO DE AYZA",
            "lat": 20.67424,
            "lng": -103.30157
        },
        {
            "name": "Huentián el Alto",
            "street1": "HUENTITAN EL ALTO",
            "street2": "ANTONIO LAGARRAÑAGA",
            "street3": "PRIV. ANTONIO LARRAÑAGA",
            "street4": "FERNANDO CALDERÓN",
            "lat": 20.7176456,
            "lng": -103.2995395
        },
        {
            "name": "JARDINES DE SAN JOSÉ",
            "street1": "ISLA RAZA",
            "street2": "ISLA SALOMÓN",
            "street3": "ISLA ORCADAS",
            "street4": "ISLA GOMERAS",
            "lat": 20.63287,
            "lng": -103.3805647
        },
        {
            "name": "La Fábrica",
            "street1": "SANTA ELENA ALCALDE",
            "street2": "ANDRÉS QUINTANA ROO",
            "street3": "FIDEL VELÁZQUEZ",
            "street4": "IRENE ROBLEDO GARCÍA",
            "lat": 20.7149188,
            "lng": -103.3497465
        },
        {
            "name": "LOMAS DEL PARADERO",
            "street1": "LOMAS DEL PARADERO",
            "street2": "JOAQUÍN HERRERA",
            "street3": "AV. RÍO NILO",
            "street4": "MANUEL DE LA PEÑA",
            "lat": 20.6491775,
            "lng": -103.3165538
        },
        {
            "name": "MANUEL M. DIÉGUEZ",
            "street1": "VILLASEÑOR",
            "street2": "MANUEL M. DIÉGUEZ",
            "street3": "JOSE MA. VIGIL",
            "street4": "EULOGIO PARRA",
            "lat": 20.6842827,
            "lng": -103.370762
        },
        {
            "name": "MARCOS MONTERO",
            "street1": "LOMAS DEL PARADERO",
            "street2": "MARCOS MONTERO",
            "street3": "RÍO LA PAZ",
            "street4": "MANZANO",
            "lat": 20.6328734,
            "lng": -103.3210228
        },
        {
            "name": "MIRAVALLE ACADEMIA",
            "street1": "MIRAVALLE",
            "street2": "HERMENEGILDO BUSTOS",
            "street3": "AV. ACADEMIA",
            "street4": "ARTES PLASTICAS / CALLE 1",
            "lat": 20.61555,
            "lng": -103.34702
        },
        {
            "name": "PANTENARIA",
            "street1": "PANTENARIA",
            "street2": "MILOS",
            "street3": "ISLA PANTENARIA",
            "street4": "ISLA DEL COCO",
            "lat": 20.6357109,
            "lng": -103.3868548
        },
        {
            "name": "PLUTARCO ELÍAS CALLES",
            "street1": "BALCONES DE OBLATOS",
            "street2": "AV. ARTESANOS",
            "street3": "JOSÉ MA. NARVÁEZ",
            "street4": "SAN PEDRO",
            "lat": 20.6985842,
            "lng": -103.2948012
        },
        {
            "name": "POLANCO",
            "street1": "LOMAS DEPOLANCO",
            "street2": "LONGINOS CADENA-CALLE 7",
            "street3": "ALFONSO CAMACHO-CALLE 6",
            "street4": "JOSÉ CARRILLO-CALLE 48",
            "lat": 20.6278964,
            "lng": -103.3701245
        },
        {
            "name": "RANCHO NUEVO",
            "street1": "RANCHO NUEVO",
            "street2": "SOTO Y GAMA",
            "street3": "ALCÉRRECA",
            "street4": "JUAN JOSÉ DE LA GARZA",
            "lat": 20.7203796,
            "lng": -103.328564
        },
        {
            "name": "RIZO",
            "street1": "ANALCO",
            "street2": "FRANCISCO SILVA ROMERO",
            "street3": "AV. REVOLUCIÓN",
            "street4": "CUITLAHUAC",
            "lat": 20.6435514,
            "lng": -103.3051871
        },
        {
            "name": "San Juan de Ulúa",
            "street1": "San Juan de Ulúa",
            "street2": "SANJUAN DE ULÚA",
            "street3": "MONTES DE OCA",
            "street4": "MÁRTIRES IRLANDESES",
            "lat": 20.7044732,
            "lng": -103.3617557
        },
        {
            "name": "SAN JUDAS",
            "street1": "COLINAS DE LA NORMAL",
            "street2": "PASEO DE LOS FILÓSOFOS",
            "street3": "PASEO DE LOS CIENTÍFICOS",
            "street4": "DIEGO RIVERA",
            "lat": 20.7000651,
            "lng": -103.3422001
        },
        {
            "name": "SANTA CECILIA",
            "street1": "SANTA CECILIA",
            "street2": "HACIENDA LA COLMENA",
            "street3": "ALFONSO ESPARZA",
            "street4": "APOLONIO MORENO",
            "lat": 20.7054236,
            "lng": -103.2900131
        },
        {
            "name": "TETLÁN",
            "street1": "TETLAN",
            "street2": "GUINEA",
            "street3": "GÓMEZ DE MENDIOLA",
            "street4": "DOBLÓN",
            "lat": 20.65983,
            "lng": -103.27556
        }
    ],
    "jueves": [
        {
            "name": "18 DE MARZO",
            "street1": "CRUZ DEL SUR",
            "street2": "ISLA RAZA",
            "street3": "ISLA ANTIGUA",
            "street4": "ISLAS ORCADAS",
            "lat": 20.6365932,
            "lng": -103.396595
        },
        {
            "name": "ABUNDANCIA",
            "street1": "ABUNDANCIA",
            "street2": "ABUNDANCIA",
            "street3": "BELISARIO DOMÍNGUEZ",
            "street4": "SAN ISIDRO",
            "lat": 20.7097498,
            "lng": -103.3056609
        },
        {
            "name": "CANTARRANAS",
            "street1": "CANTARRANAS",
            "street2": "RICARDO PALMERÍN",
            "street3": "SAN ANDRÉS",
            "street4": "ADRIAN PUGA",
            "lat": 20.6565645,
            "lng": -103.2921011
        },
        {
            "name": "FELIPE ANGELES",
            "street1": "SAN ISIDRO",
            "street2": "GUELATAO",
            "street3": "FEDERACIÓN",
            "street4": "FRANCISCO DE AYZA",
            "lat": 20.67424,
            "lng": -103.30157
        },
        {
            "name": "FRANCISCO VILLA",
            "street1": "BLANCO Y CUELLAR",
            "street2": "FCO. SARABIA-CALLE 74",
            "street3": "MANUEL PAYNO",
            "street4": "GÓMEZ DE MENDIOLA",
            "lat": 20.6056689,
            "lng": -103.3184496
        },
        {
            "name": "FRESNO",
            "street1": "FRESNO",
            "street2": "FRESNO",
            "street3": "LIMÓN",
            "street4": "OLMO",
            "lat": 20.6561668,
            "lng": -103.3670968
        },
        {
            "name": "HIGUERILLAS",
            "street1": "HUIGUERILLAS",
            "street2": "URBANO SAN ROMÁN",
            "street3": "LITOGRAFÍA",
            "street4": "IMPRENTA",
            "lat": 20.6321732,
            "lng": -103.3485789
        },
        {
            "name": "HUENTITÁN EL BAJO",
            "street1": "HUENTITAN EL BAJO",
            "street2": "VOLCÁN TOLIMAN",
            "street3": "VOLCÁN ZACAPU",
            "street4": "VOLCÁN POCHUTLA",
            "lat": 20.73573,
            "lng": -103.31715
        },
        {
            "name": "LA ANTENA",
            "street1": "LOMAS DEL RIO VERDE",
            "street2": "VENANCIO LEYVA",
            "street3": "RAFAEL CAMPOY",
            "street4": "HACIENDA JARDÍN",
            "lat": 20.6990432,
            "lng": -103.2794789
        },
        {
            "name": "LA CAPILLA",
            "street1": "JESUS",
            "street2": "JESÚS",
            "street3": "ANGULO",
            "street4": "GARIBALDI",
            "lat": 20.656218,
            "lng": -103.2718458
        },
        {
            "name": "La Duraznera",
            "street1": "LA DURAZNERA",
            "street2": "ANTONIO NERI",
            "street3": "JOSÉ ALCALÁ",
            "street4": "LONGINOS CADENA",
            "lat": 20.6250287,
            "lng": -103.3573491
        },
        {
            "name": "LA NOGALERA",
            "street1": "LA NOGALERA",
            "street2": "MAÍZ",
            "street3": "CÁRTAMO",
            "street4": "CENTENO",
            "lat": 20.6314632,
            "lng": -103.3395709
        },
        {
            "name": "LA RAJADURA",
            "street1": "OBLATOS",
            "street2": "HACIENDA LA RAJADURA",
            "street3": "JOAQUÍN AMARO",
            "street4": "PLUTARCO ELÍAS CALLES",
            "lat": 20.6895701,
            "lng": -103.2912415
        },
        {
            "name": "PALOS",
            "street1": "JARDINES DE LA CRUZ",
            "street2": "NUEVO MUNDO",
            "street3": "REYES CATÓLICOS",
            "street4": "LA RÁBIDA",
            "lat": 20.6443608,
            "lng": -103.3775019
        },
        {
            "name": "PANTEÓN NUEVO",
            "street1": "OBLATOS",
            "street2": "JUAN DE DIOS ROBLEDO",
            "street3": "MESA CENTRAL",
            "street4": "MESA DEL NORTE",
            "lat": 20.6835677,
            "lng": -103.3099575
        },
        {
            "name": "POLANCO LICONSA",
            "street1": "POLANQUITO",
            "street2": "CAYETANO ESTEVA",
            "street3": "AV. 8 DE JULIO",
            "street4": "LAURA MÉNDEZ",
            "lat": 20.6280202,
            "lng": -103.323709
        },
        {
            "name": "SAN ANDRÉS",
            "street1": "SAN ANDRES",
            "street2": "JOSÉ MARÍA VEREA",
            "street3": "CHAMIZAL",
            "street4": "DELGADILLO ARAUJO",
            "lat": 20.6582758,
            "lng": -103.3006269
        },
        {
            "name": "SAN BERNARDO",
            "street1": "MEZQUITAN COUNTRY",
            "street2": "GREGORIO DÁVILA",
            "street3": "PLAN DE SAN LUIS",
            "street4": "MAR ROJO",
            "lat": 20.6991152,
            "lng": -103.3605008
        },
        {
            "name": "SAN JORGE",
            "street1": "VALLARTA SAN JORGE",
            "street2": "AV. INGLATERRA",
            "street3": "ESQUILO",
            "street4": "PROL. SAN JORGE",
            "lat": 20.6753422,
            "lng": -103.4016756
        },
        {
            "name": "SANTA ANA",
            "street1": "SANTA MARIA",
            "street2": "EMILIANO ZAPATA",
            "street3": "JOSÉ LUIS MORA",
            "street4": "JOSÉ MARÍA LOZANO",
            "lat": 20.684153,
            "lng": -103.3285275
        },
        {
            "name": "SANTA ELENA",
            "street1": "SANTA ELENA ESTADIO",
            "street2": "CADIZ",
            "street3": "AV. PATRIA",
            "street4": "ESTORIL",
            "lat": 20.7178293,
            "lng": -103.3442207
        },
        {
            "name": "Santa Filomena",
            "street1": "SANTA FILOMENA",
            "street2": "FRESNO",
            "street3": "PERDÍZ",
            "street4": "CONDOR",
            "lat": 20.7050782,
            "lng": -103.3069743
        },
        {
            "name": "SECUNDINA GALLO",
            "street1": "SECUNDINA GALLO",
            "street2": "SECUNDINA GALLO",
            "street3": "MEDRANO",
            "street4": "EUROPA",
            "lat": 20.6552026,
            "lng": -103.3021579
        },
        {
            "name": "SIERRA NEVADA",
            "street1": "MONUMENTAL",
            "street2": "SIERRA NEVADA",
            "street3": "FRATERNIDAD",
            "street4": "MESA CENTRAL",
            "lat": 20.6927708,
            "lng": -103.3294796
        },
        {
            "name": "VICENTE FERNÁNDEZ",
            "street1": "SAN MIGUEL DE HUENTITAN",
            "street2": "JOSÉ PABLO MONCAYO",
            "street3": "HIGINIO RUVALCABA",
            "street4": "LUIS ALCARAZ",
            "lat": 20.7113934,
            "lng": -103.2958991
        }
    ],
    "viernes": [
        {
            "name": "Alamo",
            "street1": "ALAMO INDUSTRIAL",
            "street2": "METALURGIA",
            "street3": "TOLVA",
            "street4": "FRESADORA",
            "lat": 20.6549973,
            "lng": -103.3709111
        },
        {
            "name": "Arboledas",
            "street1": "NUEVA ESPAÑA",
            "street2": "JACARANDA",
            "street3": "MANGLE",
            "street4": "MORERA",
            "lat": 20.6508776,
            "lng": -103.3881875
        },
        {
            "name": "AYUNTAMIENTO",
            "street1": "ANALCO",
            "street2": "ANTONIO BRAVO",
            "street3": "ANALCO",
            "street4": "NARDO",
            "lat": 20.664964,
            "lng": -103.341681
        },
        {
            "name": "BEATRIZ HERNÁNDEZ",
            "street1": "BEATRIZ HENANDEZ",
            "street2": "MANUEL CERVANTES",
            "street3": "PEDRO VELEZ",
            "street4": "SANTIAGO DE GUZMÁN",
            "lat": 20.6777933,
            "lng": -103.281513
        },
        {
            "name": "CALLE 66",
            "street1": "BLANCO Y CUELLAR",
            "street2": "CALLE 66",
            "street3": "ARTES",
            "street4": "ALVARO OBREGÓN",
            "lat": 20.6617629,
            "lng": -103.3122617
        },
        {
            "name": "CERRO VIEJO",
            "street1": "LOMAS INDEPENDENCIA",
            "street2": "CERRO VIEJO",
            "street3": "LOS ANDES",
            "street4": "MONTE ATHOS",
            "lat": 20.6889144,
            "lng": -103.3240554
        },
        {
            "name": "CORRECCIONAL",
            "street1": "CORRECCIONAL",
            "street2": "NIQUEL",
            "street3": "MINAS DEL AMPARO",
            "street4": "MIGUEL ALVAREZ",
            "lat": 20.6301523,
            "lng": -103.3560063
        },
        {
            "name": "EL ZALATE",
            "street1": "EL ZALATE",
            "street2": "LUIS VELASCO",
            "street3": "BETZAYDA",
            "street4": "ELIGIO ANCONA",
            "lat": 20.6800426,
            "lng": -103.2775984
        },
        {
            "name": "ESMIRNA",
            "street1": "CUAHUTEMOC",
            "street2": "ESMIRNA",
            "street3": "PABLO VALDEZ",
            "street4": "PUERTO MELAQUE",
            "lat": 20.6889218,
            "lng": -103.274289
        },
        {
            "name": "FELIPE ANGELES",
            "street1": "SAN ISIDRO",
            "street2": "GUELATAO",
            "street3": "FEDERACIÓN",
            "street4": "FRANCISCO DE AYZA",
            "lat": 20.67424,
            "lng": -103.30157
        },
        {
            "name": "FERROCARRILES",
            "street1": "FERROCARRILES",
            "street2": "CALLE 12",
            "street3": "CALLE 9",
            "street4": "CALLE 7",
            "lat": 20.6440931,
            "lng": -103.3510095
        },
        {
            "name": "HISTORIADORES",
            "street1": "HISTORIADORES",
            "street2": "GRAL. MIGUEL MONDRAGÓN",
            "street3": "JOSÉ MA. MARROQUÍ",
            "street4": "PEDRO GONZALO",
            "lat": 20.6475612,
            "lng": -103.2898646
        },
        {
            "name": "INSURGENTES",
            "street1": "INSURGENTES",
            "street2": "HILARIA RÍOS",
            "street3": "ALFREDO CARRASCO",
            "street4": "MEDRANO",
            "lat": 20.6511967,
            "lng": -103.2819534
        },
        {
            "name": "LA CALERA",
            "street1": "LA CALERA",
            "street2": "HACIENDA LA CALERA",
            "street3": "CALZADA DEL OBRERO",
            "street4": "ANGEL ALBINO CORZO",
            "lat": 20.6751707,
            "lng": -103.3473385
        },
        {
            "name": "MAESTROS",
            "street1": "MEZQUITAN COUNTRY",
            "street2": "CABILDO",
            "street3": "ALFREDO R. PLASCENCIA",
            "street4": "PEDRO BUZETA",
            "lat": 20.6953686,
            "lng": -103.3601728
        },
        {
            "name": "MELCHOR MUZQUIZ",
            "street1": "LOMAS DEL PARADERO",
            "street2": "MELCHOR MUZQUIZ",
            "street3": "JUSTO CORRO",
            "street4": "AV. PRESIDENTES",
            "lat": 20.6529345,
            "lng": -103.318481
        },
        {
            "name": "Polanco Liconsa",
            "street1": "POLANQUITO",
            "street2": "AV. 8 DE JULIO",
            "street3": "CAYETANO ESTEVA",
            "street4": "TEODOMIRO MANZANO",
            "lat": 20.6209882,
            "lng": -103.3723474
        },
        {
            "name": "SAGRADA FAMILIA",
            "street1": "JESUS",
            "street2": "CRUZ VERDE",
            "street3": "EULOGIO PARRA",
            "street4": "FRANCISCO ZARCO",
            "lat": 20.6878881,
            "lng": -103.3574298
        },
        {
            "name": "SAN ISIDRO",
            "street1": "SAN ISIDRO",
            "street2": "INDUSTRIA",
            "street3": "HUERTAS",
            "street4": "LAGUNITAS",
            "lat": 20.6794451,
            "lng": -103.2987921
        }
    ],
    "sabado": [
        {
            "name": "BALCONES DE OBLATOS",
            "street1": "BALCONES DE OBLATOS",
            "street2": "HACIENDA CHILA",
            "street3": "HACIENDA LA GUARACHA",
            "street4": "HACIENDA LA AURORA",
            "lat": 20.6876632,
            "lng": -103.2860503
        },
        {
            "name": "Batallón de Atenquique",
            "street1": "FLORES MAGON",
            "street2": "BATALLÓN DE ATENQUIQUE",
            "street3": "BATALLÓN DE S. PATRICIO",
            "street4": "COMBATE DE SACRAMENTO",
            "lat": 20.7153769,
            "lng": -103.3160079
        },
        {
            "name": "CHIHUAHUA",
            "street1": "LA GUADALUPANA",
            "street2": "FRANCISCO TEJEDA",
            "street3": "PRIV. FRANCISCO TEJEDA",
            "street4": "PRIV. CHIHUAHUA",
            "lat": 20.7024064,
            "lng": -103.3502328
        },
        {
            "name": "EL AVIÓN",
            "street1": "EL CARMEN",
            "street2": "AV. DE LOS AHUEHUETES",
            "street3": "JOSÉ MA. CASTILLERO",
            "street4": "RICARDO PALACIOS",
            "lat": 20.6180905,
            "lng": -103.3853573
        },
        {
            "name": "EL SAUZ",
            "street1": "EL SAUZ",
            "street2": "ISLA HÉBRIDAS",
            "street3": "AV. JAIME TORRES BODET",
            "street4": "AV. PATRIA",
            "lat": 20.6286946,
            "lng": -103.3908673
        },
        {
            "name": "FELIPE ANGELES",
            "street1": "SAN ISIDRO",
            "street2": "GUELATAO",
            "street3": "FEDERACIÓN",
            "street4": "FRANCISCO DE AYZA",
            "lat": 20.67424,
            "lng": -103.30157
        },
        {
            "name": "FRESADORA",
            "street1": "QUINTA VELARDE",
            "street2": "RÍO AMACUZAC",
            "street3": "RÍO NILO",
            "street4": "CALZADA OLÍMPICA",
            "lat": 20.65075,
            "lng": -103.33417
        },
        {
            "name": "GÓMEZ FARÍAS",
            "street1": "GOMEZ FARIAS",
            "street2": "JOSÉ ESCOBAR",
            "street3": "JOSÉ CORNEJO",
            "street4": "GENARO GARCÍA",
            "lat": 20.6183581,
            "lng": -103.3619898
        },
        {
            "name": "GUACAMAYA",
            "street1": "FRESNO",
            "street2": "GUACAMAYO",
            "street3": "PICHÓN",
            "street4": "URRACA",
            "lat": 20.6498338,
            "lng": -103.3563068
        },
        {
            "name": "Guillermo Prieto",
            "street1": "BENITO JUAREZ",
            "street2": "PESO",
            "street3": "AV. PRESA LAUREL",
            "street4": "GUINEA",
            "lat": 20.6863055,
            "lng": -103.347922
        },
        {
            "name": "IMPRENTA",
            "street1": "HIGUERILLAS",
            "street2": "IMPRENTA",
            "street3": "MARIANO RODRÍGUEZ",
            "street4": "JOSÉ IGINEZ",
            "lat": 20.6326374,
            "lng": -103.348105
        },
        {
            "name": "INFONAVIT ESTADIO",
            "street1": "RESIDENCIAL SAN ELIAS",
            "street2": "SIERRA DE COMANJA",
            "street3": "MONTE ROSAS",
            "street4": "MONTE GALERA",
            "lat": 20.7101511,
            "lng": -103.3331078
        },
        {
            "name": "La 60",
            "street1": "TALPITA",
            "street2": "CALLE 60",
            "street3": "SAN ESTEBAN",
            "street4": "SANTA CLEMENCIA",
            "lat": 20.6278325,
            "lng": -103.3834074
        },
        {
            "name": "LA 70",
            "street1": "POPULAR",
            "street2": "CALLE 70",
            "street3": "SAN PABLO",
            "street4": "SANTO TOMÁS",
            "lat": 20.670907,
            "lng": -103.3067377
        },
        {
            "name": "La 72",
            "street1": "INDUSTRIA",
            "street2": "CALLE 72",
            "street3": "DIONISIO RODRÍGUEZ",
            "street4": "PEDRO MA. ANAYA",
            "lat": 20.6759951,
            "lng": -103.3149459
        },
        {
            "name": "LA CONCHA",
            "street1": "SAN JUAN DE DIOS",
            "street2": "CHURUBUSCO",
            "street3": "ALVARO OBREGÓN",
            "street4": "DIONISIO RODRÍGUEZ",
            "lat": 20.6763867,
            "lng": -103.3342481
        },
        {
            "name": "LAGOS DE ORIENTE",
            "street1": "LAGOS DE ORIENTE",
            "street2": "CONGRESO",
            "street3": "NUBIA",
            "street4": "JOSÉ GÓMEZ DE LA CORTINA",
            "lat": 20.668521,
            "lng": -103.290912
        },
        {
            "name": "LEGALIDAD",
            "street1": "PARQUES INDEPENDENCIA",
            "street2": "LEGALIDAD",
            "street3": "CALZADA INDEPENDENCIA",
            "street4": "CLÍO",
            "lat": 20.7142386,
            "lng": -103.3302633
        },
        {
            "name": "LOMAS DE ATEMAJAC",
            "street1": "LOMAS DE ATEMAJAC",
            "street2": "FIDEL VELÁZQUEZ SÁNCHEZ",
            "street3": "ENRIQUE DÍAZ DE LEÓN",
            "street4": "CHETUMAL",
            "lat": 20.7125256,
            "lng": -103.3585954
        },
        {
            "name": "MOCHITILTIC",
            "street1": "BALCONES DE OBLATOS",
            "street2": "HACIENDA MOCHITILTIC",
            "street3": "HACIENDA DE TALA",
            "street4": "HACIENDA SANTIAGO",
            "lat": 20.6945242,
            "lng": -103.2988678
        },
        {
            "name": "POLANQUITO",
            "street1": "POLANQUITO",
            "street2": "JESÚS REYES HEROLES",
            "street3": "RAFAEL MOLINA",
            "street4": "FELIPE LÓPEZ",
            "lat": 20.6170387,
            "lng": -103.3721772
        },
        {
            "name": "SAN JUAN BOSCO",
            "street1": "SAN JUAN BOSCO",
            "street2": "IGNACIO MACHAIN-CALLE 60",
            "street3": "MANUEL PAYNO",
            "street4": "REPÚBLICA",
            "lat": 20.67679,
            "lng": -103.30995
        },
        {
            "name": "SAN VICENTE",
            "street1": "SANTA ROSA",
            "street2": "PUERTO DEL CARMEN",
            "street3": "SAN PÍO",
            "street4": "IGUALDAD",
            "lat": 20.7025651,
            "lng": -103.3118667
        }
    ],
    "domingo": [
        {
            "name": "5 de Mayo",
            "street1": "MIRAVALLE",
            "street2": "JUAN CORDERO",
            "street3": "JOSÉ MA. SOLÍS",
            "street4": "PATRIA",
            "lat": 20.6195576,
            "lng": -103.348976
        },
        {
            "name": "AGUA AZUL",
            "street1": "SAN MARCOS",
            "street2": "NICOLÁS REGULES",
            "street3": "CONSTITUYENTES",
            "street4": "ESPAÑA",
            "lat": 20.6595989,
            "lng": -103.3494703
        },
        {
            "name": "AGUSTÍN DE LA ROSA",
            "street1": "DEL SUR",
            "street2": "COLOMBIA",
            "street3": "SAN SALVADOR",
            "street4": "HONDURAS",
            "lat": 20.6751707,
            "lng": -103.3473385
        },
        {
            "name": "BARATILLO",
            "street1": "OLIMPICA",
            "street2": "CALLE 38",
            "street3": "GIGANTES",
            "street4": "PUERTO MELAQUE/JUAN PABLO II",
            "lat": 20.6835529,
            "lng": -103.3192294
        },
        {
            "name": "BEATRIZ HERNÁNDEZ",
            "street1": "BEATRIZ HERNANDEZ",
            "street2": "GAZA",
            "street3": "PEDRO SÁNCHEZ",
            "street4": "PROLONGACIÓN DEMÓSTENES",
            "lat": 20.6804474,
            "lng": -103.2864842
        },
        {
            "name": "C.T.M. LA LOMA",
            "street1": "CTM LA LOMA",
            "street2": "MIGUEL NORIEGA",
            "street3": "JOSÉ ACEVES POZOS",
            "street4": "MIGUEL URIBE",
            "lat": 20.6944071,
            "lng": -103.2791548
        },
        {
            "name": "CADIZ",
            "street1": "SANTA ELENA ESTADIO",
            "street2": "CADIZ",
            "street3": "IRENE ROBLEDO",
            "street4": "ÉVORA",
            "lat": 20.7109983,
            "lng": -103.3377928
        },
        {
            "name": "CALLE 40",
            "street1": "OLIMPICA",
            "street2": "CORREGIDORA- CALLE 40",
            "street3": "AV. REVOLUCIÓN",
            "street4": "MARCELINO G. BARRAGÁN",
            "lat": 20.6602588,
            "lng": -103.3268623
        },
        {
            "name": "CALLE 62",
            "street1": "SAN JUAN BOSCO",
            "street2": "CALLE 62",
            "street3": "JOSEFA ORTIZ DE DOMÍNGUEZ",
            "street4": "GÓMEZ DE MENDIOLA",
            "lat": 20.6595039,
            "lng": -103.3295989
        },
        {
            "name": "CANTERA",
            "street1": "SAN MARCOS",
            "street2": "PUERTO ANGEL",
            "street3": "MONTE LA LUNA",
            "street4": "PUERTO ENSENADA",
            "lat": 20.6957697,
            "lng": -103.313592
        },
        {
            "name": "FELIPE ANGELES",
            "street1": "SAN ISIDRO",
            "street2": "GUELATAO",
            "street3": "FEDERACIÓN",
            "street4": "FRANCISCO DE AYZA",
            "lat": 20.67424,
            "lng": -103.30157
        },
        {
            "name": "HERRERA Y CAIRO",
            "street1": "ARTESANOS",
            "street2": "HACIENDA SANTIAGO",
            "street3": "HACIENDA LA QUEMADA",
            "street4": "AV. ARTESANOS",
            "lat": 20.6950893,
            "lng": -103.2953491
        },
        {
            "name": "HUENTITÁN EL BAJO",
            "street1": "HUENTITAN EL BAJO",
            "street2": "VOLCÁN TOLIMAN",
            "street3": "VOLCÁN ZACAPU",
            "street4": "VOLCÁN ANTUCO",
            "lat": 20.73573,
            "lng": -103.31715
        },
        {
            "name": "La 74",
            "street1": "LA NOPALERA",
            "street2": "CALLE 74",
            "street3": "ARTES",
            "street4": "EUROPA",
            "lat": 20.654105,
            "lng": -103.3145669
        },
        {
            "name": "LA NORMAL",
            "street1": "LA NORMAL",
            "street2": "MAGISTERIO",
            "street3": "MARIANO BÁRCENAS",
            "street4": "AV. AVILA CAMACHO",
            "lat": 20.69589,
            "lng": -103.34979
        },
        {
            "name": "Las Vías",
            "street1": "MIRAVALLE",
            "street2": "AV. ARQUITECTURA",
            "street3": "AV. GOBERNADOR CURIEL",
            "street4": "CEREZOS",
            "lat": 20.665664,
            "lng": -103.3945159
        },
        {
            "name": "Lomas del Gallo",
            "street1": "LOMAS DEL GALLO",
            "street2": "SUCRE",
            "street3": "JOSÉ HERNÁNDEZ",
            "street4": "SALARIO",
            "lat": 20.6756938,
            "lng": -103.2704367
        },
        {
            "name": "LOMAS DEL PARAÍSO",
            "street1": "LOMAS DEL PARAISO",
            "street2": "JOSÉ MA. SÁNCHEZ",
            "street3": "EUSTAQUIO ARIAS",
            "street4": "BERNARDO GUTIÉRREZ",
            "lat": 20.7241389,
            "lng": -103.3199847
        },
        {
            "name": "MANUEL CAMBRE",
            "street1": "SANTA TERESITA",
            "street2": "NICOLÁS ROMERO",
            "street3": "MANUEL ACUÑA",
            "street4": "MANUEL ASPIROZ",
            "lat": 20.6873283,
            "lng": -103.3620813
        },
        {
            "name": "MARGARITA MAZA DE J.",
            "street1": "MTA. MAZA DE JUAREZ",
            "street2": "ANTONIO SALANUEVA",
            "street3": "AMADO GUADARRAMA",
            "street4": "MANUEL GUTIÉRREZ",
            "lat": 20.7118388,
            "lng": -103.3000745
        },
        {
            "name": "PESO",
            "street1": "TETLAN",
            "street2": "PESO",
            "street3": "AV. PRESA LAUREL",
            "street4": "GUINEA",
            "lat": 20.6702966,
            "lng": -103.27268
        },
        {
            "name": "POLANCO",
            "street1": "LOMAS DE POLANCO",
            "street2": "LONGINOS CADENA-CALLE 7",
            "street3": "ALFONSO CAMACHO-CALLE 6",
            "street4": "JOSÉ CARRILLO-CALLE 48",
            "lat": 20.6278964,
            "lng": -103.3701245
        },
        {
            "name": "RANCHO NUEVO",
            "street1": "RANCHO NUEVO",
            "street2": "MARTÍN GONZÁLEZ",
            "street3": "AV. SOTO Y GAMA",
            "street4": "MARIANO BALLEZA",
            "lat": 20.7191952,
            "lng": -103.3340671
        },
        {
            "name": "Río Lagos",
            "street1": "OLIMPICA",
            "street2": "RÍO VOLGA",
            "street3": "RÍO RHÍN",
            "street4": "RÍO TÁMESIS",
            "lat": 20.6498306,
            "lng": -103.3319618
        },
        {
            "name": "SANTA TERESITA",
            "street1": "VILLASEÑOR",
            "street2": "RAMOS MILLÁN",
            "street3": "ANGULO",
            "street4": "HOSPITAL",
            "lat": 20.6831219,
            "lng": -103.3671857
        },
        {
            "name": "SUCRE",
            "street1": "TETLAN",
            "street2": "SUCRE",
            "street3": "GUARANÍ",
            "street4": "AHORRO",
            "lat": 20.67949,
            "lng": -103.2699
        },
        {
            "name": "TETLÁN",
            "street1": "TETLAN",
            "street2": "TERESA REYNOSO",
            "street3": "LEONOR PINTADO",
            "street4": "JOSEFA MENDOZA",
            "lat": 20.6526264,
            "lng": -103.2806127
        }
    ]
}